[
    {
        "address": "Via Ostiense 159",
        "admin_region": "Lazio",
        "category_ids": [
            29
        ],
        "category_labels": [
            [
                "Community and Government",
                "Education",
                "Colleges and Universities"
            ]
        ],
        "country": "it",
        "factual_id": "fb00d77b-4c1d-4bc6-8145-0192f59006b6",
        "hours": {
            "monday": [
                [
                    "6:00",
                    "17:00"
                ]
            ],
            "tuesday": [
                [
                    "7:00",
                    "17:00"
                ]
            ],
            "wednesday": [
                [
                    "7:00",
                    "17:00"
                ]
            ],
            "thursday": [
                [
                    "7:00",
                    "20:00"
                ]
            ],
            "friday": [
                [
                    "8:00",
                    "17:00"
                ]
            ],
            "saturday": [
                [
                    "8:00",
                    "10:00"
                ],
                [
                    "20:00",
                    "21:00"
                ]
            ]
        },
        "hours_display": "Mon 6:00-17:00; Tue-Wed 7:00-17:00; Thu 7:00-20:00; Fri 8:00-17:00; Sat 8:00-10:00, 20:00-21:00",
        "latitude": 41.8626,
        "locality": "Roma",
        "longitude": 12.479091,
        "name": "Università degli Studi Roma Tre",
        "postcode": "00134",
        "region": "Roma",
        "tel": "06 570671",
        "website": "http://www.uniroma3.it"
    },
    {
        "address": "Via Ostiense 133",
        "admin_region": "Lazio",
        "category_ids": [
            29
        ],
        "category_labels": [
            [
                "Community and Government",
                "Education",
                "Colleges and Universities"
            ]
        ],
        "country": "it",
        "factual_id": "bb4d5e53-3f66-454b-8a31-cdcefd91be8d",
        "latitude": 41.864814,
        "locality": "Roma",
        "longitude": 12.479872,
        "name": "Università Roma Tre Dams",
        "postcode": "00154",
        "region": "Roma",
        "tel": "06 5733 2838"
    },
    {
        "address": "Piazza della Radio 45",
        "admin_region": "Lazio",
        "category_ids": [
            29
        ],
        "category_labels": [
            [
                "Community and Government",
                "Education",
                "Colleges and Universities"
            ]
        ],
        "country": "it",
        "factual_id": "f4a86ea2-3395-4200-9acb-b62cbb862223",
        "latitude": 41.870405,
        "locality": "Roma",
        "longitude": 12.466618,
        "name": "Università degli Studi di Roma Tre",
        "postcode": "00146",
        "region": "Roma",
        "tel": "06 558 8716",
        "website": "http://www.uniroma3.it"
    },
    {
        "address": "Via Daniele Manin 53",
        "admin_region": "Lazio",
        "category_ids": [
            29
        ],
        "category_labels": [
            [
                "Community and Government",
                "Education",
                "Colleges and Universities"
            ]
        ],
        "country": "it",
        "factual_id": "0939b5ae-b90e-4e06-92f3-a0e882150e99",
        "latitude": 41.899156,
        "locality": "Roma",
        "longitude": 12.49938,
        "name": "Universita Studi Roma Tre",
        "postcode": "00185",
        "region": "Roma",
        "tel": "06 474 3657",
        "website": "http://www.uniroma3.it/"
    },
    {
        "address": "Largo Giovanni Battista Marzi",
        "admin_region": "Lazio",
        "category_ids": [
            29
        ],
        "category_labels": [
            [
                "Community and Government",
                "Education",
                "Colleges and Universities"
            ]
        ],
        "country": "it",
        "factual_id": "688b3277-7162-4b75-904c-9f1ed50840f7",
        "latitude": 41.875784,
        "locality": "Roma",
        "longitude": 12.471775,
        "name": "Università degli Studi Roma Tre",
        "postcode": "00153",
        "region": "Roma",
        "tel": "06 574 5260",
        "website": "http://www.uniroma3.it"
    },
    {
        "address": "Via della Vasca Navale 84",
        "admin_region": "Lazio",
        "category_ids": [
            29
        ],
        "category_labels": [
            [
                "Community and Government",
                "Education",
                "Colleges and Universities"
            ]
        ],
        "country": "it",
        "factual_id": "8e28fff4-f229-4627-8d16-39e7268fb611",
        "latitude": 41.854989,
        "locality": "Roma",
        "longitude": 12.46648,
        "name": "Università Roma Tre Dipartimento di Fisica Edoardo Amaldi",
        "postcode": "00146",
        "region": "Roma",
        "tel": "06 5530 0992",
        "website": "http://www.uniroma3.it/"
    },
    {
        "address": "Largo San Leonardo Murialdo 1",
        "admin_region": "Lazio",
        "category_ids": [
            29
        ],
        "category_labels": [
            [
                "Community and Government",
                "Education",
                "Colleges and Universities"
            ]
        ],
        "country": "it",
        "factual_id": "e1e61b16-7a99-4fca-8131-824427c0c5f3",
        "latitude": 41.854094,
        "locality": "Roma",
        "longitude": 12.465783,
        "name": "Università Roma Tre - Presidenza Scienze Mfn",
        "postcode": "00146",
        "region": "Roma",
        "tel": "06 594 0288",
        "website": "http://www.uniroma3.it/"
    },
    {
        "address": "Via della Vasca Navale 79",
        "address_extended": "81",
        "admin_region": "Lazio",
        "category_ids": [
            29
        ],
        "category_labels": [
            [
                "Community and Government",
                "Education",
                "Colleges and Universities"
            ]
        ],
        "country": "it",
        "factual_id": "a9f04e13-6819-40f3-b48f-6e68a9fdb2bf",
        "latitude": 41.855931,
        "locality": "Roma",
        "longitude": 12.469775,
        "name": "Mensa Cimas LazioDISU Roma Tre",
        "postcode": "00146",
        "region": "Roma",
        "tel": "06 553407"
    },
    {
        "address": "Via del Castro Pretorio 20",
        "admin_region": "Lazio",
        "category_ids": [
            29
        ],
        "category_labels": [
            [
                "Community and Government",
                "Education",
                "Colleges and Universities"
            ]
        ],
        "country": "it",
        "factual_id": "3e7a66a7-904e-4818-b8f4-f08a96985bed",
        "latitude": 41.90125,
        "locality": "Roma",
        "longitude": 12.50507,
        "name": "Università degli Studi Roma Tre",
        "postcode": "00185",
        "region": "Roma",
        "tel": "06 492291",
        "website": "http://www.uniroma3.it"
    },
    {
        "address": "Via del Castro Pretorio 20",
        "admin_region": "Lazio",
        "category_ids": [
            29
        ],
        "category_labels": [
            [
                "Community and Government",
                "Education",
                "Colleges and Universities"
            ]
        ],
        "country": "it",
        "factual_id": "2fe46754-36a8-4d33-9c9a-a88da744df67",
        "latitude": 41.90152,
        "locality": "Roma",
        "longitude": 12.50511,
        "name": "Università degli Studi Roma Tre - Facoltà di Scienze della Formazione",
        "postcode": "00185",
        "region": "Roma",
        "tel": "06 446 7668",
        "website": "http://www.uniroma3.it"
    },
    {
        "address": "Via Corrado Segre 2",
        "address_extended": "4",
        "admin_region": "Lazio",
        "category_ids": [
            29
        ],
        "category_labels": [
            [
                "Community and Government",
                "Education",
                "Colleges and Universities"
            ]
        ],
        "country": "it",
        "factual_id": "b64565c7-d034-4291-b3f4-0602f09c048a",
        "latitude": 41.855025,
        "locality": "Roma",
        "longitude": 12.471701,
        "name": "Università degli Studi Roma Tre - Facoltà di Ingegneria",
        "postcode": "00146",
        "region": "Roma",
        "tel": "06 5733 7066"
    },
    {
        "address": "Piazza della Repubblica 10",
        "admin_region": "Lazio",
        "category_ids": [
            29
        ],
        "category_labels": [
            [
                "Community and Government",
                "Education",
                "Colleges and Universities"
            ]
        ],
        "country": "it",
        "factual_id": "4e7a02cf-c78d-4621-8630-f27bf2f3baa9",
        "latitude": 41.902536,
        "locality": "Roma",
        "longitude": 12.496091,
        "name": "Università degli Studi Roma Tre-Sezione di Scienze Geografiche Cartografic",
        "postcode": "00185",
        "region": "Roma",
        "tel": "06 474 1446",
        "website": "http://www.uniroma3.it/"
    },
    {
        "address": "Piazza della Repubblica 10",
        "admin_region": "Lazio",
        "category_ids": [
            29
        ],
        "category_labels": [
            [
                "Community and Government",
                "Education",
                "Colleges and Universities"
            ]
        ],
        "country": "it",
        "factual_id": "86d5bb07-c958-459a-a8b0-40588647bf66",
        "latitude": 41.70561,
        "locality": "Roma",
        "longitude": 12.68993,
        "name": "Università Roma Tre - Dipartimento Studi Sul Mondo Antico",
        "postcode": "00185",
        "region": "Roma",
        "tel": "06 482 8129",
        "website": "http://www.uniroma3.it"
    },
    {
        "address": "Via del Castro Pretorio 20",
        "admin_region": "Lazio",
        "category_ids": [
            29
        ],
        "category_labels": [
            [
                "Community and Government",
                "Education",
                "Colleges and Universities"
            ]
        ],
        "country": "it",
        "factual_id": "4632d18d-46b5-4647-83f7-e7a6b0bf2a94",
        "latitude": 41.90152,
        "locality": "Roma",
        "longitude": 12.50511,
        "name": "Universita'Roma Tre-Dipartimento Scienze Dell'Educazione",
        "postcode": "00185",
        "region": "Roma",
        "tel": "06 446 0925",
        "website": "http://www.uniroma3.it"
    },
    {
        "address": "Largo San Leonardo Murialdo 1",
        "admin_region": "Lazio",
        "category_ids": [
            29
        ],
        "category_labels": [
            [
                "Community and Government",
                "Education",
                "Colleges and Universities"
            ]
        ],
        "country": "it",
        "factual_id": "8ea29adf-86f0-4ea5-9bbf-cd15cff734e8",
        "latitude": 41.854122,
        "locality": "Roma",
        "longitude": 12.46573,
        "name": "Università degli Studi Roma Tre",
        "postcode": "00146",
        "region": "Roma",
        "tel": "06 548881",
        "website": "http://www.uniroma3.it"
    },
    {
        "address": "Via Casamari 31",
        "admin_region": "Lazio",
        "category_ids": [
            29
        ],
        "category_labels": [
            [
                "Community and Government",
                "Education",
                "Colleges and Universities"
            ]
        ],
        "country": "it",
        "factual_id": "3ce7be7c-fa16-45f9-b286-571841091f2b",
        "latitude": 41.848121,
        "locality": "Roma",
        "longitude": 12.476005,
        "name": "Università degli Studi Roma Tre",
        "postcode": "00142",
        "region": "Roma",
        "tel": "06 5422 5904",
        "website": "http://www.uniroma3.it/"
    },
    {
        "address": "Via della Vasca Navale 79",
        "address_extended": "81",
        "admin_region": "Lazio",
        "category_ids": [
            29
        ],
        "category_labels": [
            [
                "Community and Government",
                "Education",
                "Colleges and Universities"
            ]
        ],
        "country": "it",
        "factual_id": "59eec341-661d-4257-b68a-843cf1c43b59",
        "latitude": 41.85536,
        "locality": "Roma",
        "longitude": 12.4669,
        "name": "Azienda Per Il Diritto Allo Studio Universitario Roma Tre A.Di.S.U.",
        "postcode": "00146",
        "region": "Roma",
        "tel": "06 559 3852"
    },
    {
        "address": "Via Gabriello Chiabrera 199",
        "admin_region": "Lazio",
        "category_ids": [
            29
        ],
        "category_labels": [
            [
                "Community and Government",
                "Education",
                "Colleges and Universities"
            ]
        ],
        "country": "it",
        "factual_id": "ce0df0fd-e07c-4f88-b440-b907ee9c9deb",
        "latitude": 41.853749,
        "locality": "Roma",
        "longitude": 12.479244,
        "name": "Università degli Studi Roma Tre - Facoltà di Scienze Politiche",
        "postcode": "00145",
        "region": "Roma",
        "tel": "06 5733 5277"
    },
    {
        "address": "Via delle Terme di Diocleziano 10",
        "admin_region": "Lazio",
        "category_ids": [
            29
        ],
        "category_labels": [
            [
                "Community and Government",
                "Education",
                "Colleges and Universities"
            ]
        ],
        "country": "it",
        "factual_id": "73b20f49-7454-4f06-a47a-2ba77e95c445",
        "latitude": 41.901719,
        "locality": "Roma",
        "longitude": 12.497497,
        "name": "Università Roma Tre - Corsi di Laurea Lettere",
        "postcode": "00118",
        "region": "Roma",
        "tel": "06 488 1461",
        "website": "http://www.uniroma3.it/"
    },
    {
        "address": "Via Silvio d'amico 111",
        "admin_region": "Lazio",
        "category_ids": [
            29
        ],
        "category_labels": [
            [
                "Community and Government",
                "Education",
                "Colleges and Universities"
            ]
        ],
        "country": "it",
        "factual_id": "18b55e91-8b88-47cb-82a3-a96c55f85a96",
        "latitude": 41.85034,
        "locality": "Roma",
        "longitude": 12.480972,
        "name": "Università degli Studi Roma Tre - Facoltà di Economia",
        "postcode": "00145",
        "region": "Roma",
        "tel": "06 5733 5602"
    },
    {
        "address": "Piazza della Repubblica 10",
        "admin_region": "Lazio",
        "category_ids": [
            29
        ],
        "category_labels": [
            [
                "Community and Government",
                "Education",
                "Colleges and Universities"
            ]
        ],
        "country": "it",
        "factual_id": "c13c1958-ee8a-4064-95c6-f4e0e75e59aa",
        "latitude": 41.70561,
        "locality": "Roma",
        "longitude": 12.68993,
        "name": "Terza Universita degli Studi di Roma",
        "postcode": "00185",
        "region": "Roma",
        "tel": "06 474 3383",
        "website": "http://www.uniroma3.it"
    },
    {
        "address": "Via Silvio d'Amico 111",
        "admin_region": "Lazio",
        "category_ids": [
            29
        ],
        "category_labels": [
            [
                "Community and Government",
                "Education",
                "Colleges and Universities"
            ]
        ],
        "country": "it",
        "factual_id": "f02ca8e6-57d0-4920-b391-36c445656cde",
        "latitude": 41.85045,
        "locality": "Roma",
        "longitude": 12.480834,
        "name": "Terza Università degli Studi di Roma",
        "postcode": "00145",
        "region": "Roma",
        "tel": "06 5422 3034",
        "website": "http://www.uniroma3.it/"
    }
]